{
    "locations": [
        {
            "lat": 0.0,
            "lon": 0.0,
            "tiploc": "ALDRSJN",
            "name": "Aldershot North Junction",
            "crs": "ZAJ",
            "toc": "SW"
        },
        {
            "lat": 0.0,
            "lon": 0.0,
            "tiploc": "LRDDEAC",
            "name": "London Road Depot",
            "crs": "ZLR",
            "toc": "SW"
        },
        {
            "lat": 0.0,
            "lon": 0.0,
            "tiploc": "BRKNIOM",
            "name": "Birkenhead 12 Quays",
            "crs": "BKI",
            "toc": "ME"
        },
        {
            "lat": 0.0,
            "lon": 0.0,
            "tiploc": "LILBDGE",
            "name": "Lillie Bridge Depot LUL",
            "crs": "ZLB",
            "toc": "LU"
        },
        {
            "lat": 0.0,
            "lon": 0.0,
            "tiploc": "OXFPWAY",
            "name": "Oxford Parkway",
            "crs": "OXP",
            "toc": "CH"
        },
        {
            "lat": 0.0,
            "lon": 0.0,
            "tiploc": "GRVSFRY",
            "name": "Gravesend Town Pier",
            "crs": "ZGP",
            "toc": "SE"
        },
        {
            "lat": 0.0,
            "lon": 0.0,
            "tiploc": "NTNGMJN",
            "name": "Mansfield Junction",
            "crs": "ZMJ",
            "toc": "EM"
        },
        {
            "lat": 0.0,
            "lon": 0.0,
            "tiploc": "PRBRITJ",
            "name": "Pirbright Junction",
            "crs": "ZPB",
            "toc": "SW"
        },
        {
            "lat": 0.0,
            "lon": 0.0,
            "tiploc": "BORMRKJ",
            "name": "Borough Market Junction",
            "crs": "ZBM",
            "toc": "SE"
        },
        {
            "lat": 0.0,
            "lon": 0.0,
            "tiploc": "SHTLTNL",
            "name": "Shettleston Loop",
            "crs": "ZSL",
            "toc": "SR"
        },
        {
            "lat": 0.0,
            "lon": 0.0,
            "tiploc": "ILKES",
            "name": "Ilkeston",
            "crs": "ILN",
            "toc": "NT"
        },
        {
            "lat": 0.0,
            "lon": 0.0,
            "tiploc": "BCSTSJ",
            "name": "Bicester South Junction",
            "crs": "XJV",
            "toc": "CH"
        },
        {
            "lat": 0.0,
            "lon": 0.0,
            "tiploc": "CARLLRJ",
            "name": "CARLLRJ",
            "crs": "ZCR",
            "toc": "VT"
        },
        {
            "lat": 0.0,
            "lon": 0.0,
            "tiploc": "WDNPK",
            "name": "Wimbledon Park",
            "crs": "WPK",
            "toc": "LU"
        },
        {
            "lat": 52.2427,
            "lon": -0.907905,
            "tiploc": "NMPTNNJ",
            "name": "Northampton North Junction",
            "crs": "ZNJ",
            "toc": "LM"
        },
        {
            "lat": 51.5314,
            "lon": 0.01722,
            "tiploc": "PLASTOW",
            "name": "Plaistow L.T.",
            "crs": "ZPS",
            "toc": "LU"
        },
        {
            "lat": 43.3032794,
            "lon": 5.380142,
            "tiploc": "MRSLSTC",
            "name": "Marseille St Charles",
            "crs": "MSC",
            "toc": "ES"
        },
        {
            "lat": 0.0,
            "lon": 0.0,
            "tiploc": "CRNFUGL",
            "name": "Carnforth D&U.G.L.",
            "crs": "XCS",
            "toc": "WR"
        },
        {
            "lat": 51.51504,
            "lon": -0.07236,
            "tiploc": "ALDGEST",
            "name": "Aldgate East",
            "crs": "ZAE",
            "toc": "LU"
        },
        {
            "lat": 51.4592, 
            "tiploc": "EPUTNEY", 
            "name": "East Putney", 
            "crs": "ZEP", 
            "toc": "LU", 
            "lon": -0.21098
        }, 
        {
            "lat": 55.8404, 
            "tiploc": "GOREBRG", 
            "name": "Gorebridge", 
            "crs": "GBG", 
            "toc": "SR", 
            "lon": -3.0468
        }, 
        {
            "lat": 51.5527, 
            "tiploc": "HLWYRLT", 
            "name": "Holloway Road", 
            "crs": "ZHR", 
            "toc": "LU", 
            "lon": -0.11322
        }, 
        {
            "lat": 51.5166744, 
            "tiploc": "PADTLUL", 
            "name": "Paddington (Bakerloo Line)", 
            "crs": "ZPN", 
            "toc": "LU", 
            "lon": -0.1769328
        },
        {
            "lat": 0.0,
            "lon": 0.0,
            "tiploc": "FLKSTNE",
            "name": "Folkestone East",
            "crs": "FKE",
            "toc": "SE"
        },
        {
            "lat": 53.36484014431577, 
            "tiploc": "NWMILSC", 
            "name": "New Mills Central", 
            "crs": "NMC", 
            "toc": "NT", 
            "lon": -2.005671137351082
        }, 
        {
            "lat": 52.9753511176829, 
            "tiploc": "HBRTBDG", 
            "name": "Hubberts Bridge", 
            "crs": "HBB", 
            "toc": "EM", 
            "lon": -0.1105287604554698
        }, 
        {
            "lat": 53.31955235777388, 
            "tiploc": "ADLC", 
            "name": "Adlington (Cheshire)", 
            "crs": "ADC", 
            "toc": "NT", 
            "lon": -2.133562473910576
        }, 
        {
            "lat": 51.357580617532406, 
            "tiploc": "WHSTBLE", 
            "name": "Whitstable", 
            "crs": "WHI", 
            "toc": "SE", 
            "lon": 1.0332947132577845
        }, 
        {
            "lat": 54.9575, 
            "tiploc": "FELL", 
            "name": "Fellgate (T & W Metro)", 
            "crs": "FEG", 
            "toc": "TW", 
            "lon": -1.4856
        }, 
        {
            "lat": 51.066063124425554, 
            "tiploc": "HORSHAM", 
            "name": "Horsham", 
            "crs": "HRH", 
            "toc": "SN", 
            "lon": -0.3192694871777138
        }, 
        {
            "lat": 52.10470909770377, 
            "tiploc": "LLWRTYW", 
            "name": "Llanwrtyd", 
            "crs": "LNW", 
            "toc": "AW", 
            "lon": -3.632163294272856
        }, 
        {
            "lat": 50.73918327908035, 
            "tiploc": "RYDP", 
            "name": "Ryde Pier Head", 
            "crs": "RYP", 
            "toc": "IL", 
            "lon": -1.1601266594011788
        }, 
        {
            "lat": 54.965826626951085, 
            "tiploc": "PRUDHOE", 
            "name": "Prudhoe", 
            "crs": "PRU", 
            "toc": "NT", 
            "lon": -1.8648655591006895
        }, 
        {
            "lat": 51.47150697354234, 
            "tiploc": "TILHRST", 
            "name": "Tilehurst", 
            "crs": "TLH", 
            "toc": "GW", 
            "lon": -1.0298158886948712
        }, 
        {
            "lat": 51.488133701347216, 
            "tiploc": "SBRMNDS", 
            "name": "South Bermondsey", 
            "crs": "SBM", 
            "toc": "SN", 
            "lon": -0.05467773259566379
        }, 
        {
            "lat": 52.6374725972589, 
            "tiploc": "TMWTHLL", 
            "name": "Tamworth", 
            "crs": "TAM", 
            "toc": "LM", 
            "lon": -1.686464391730138
        }, 
        {
            "lat": 53.72407559898754, 
            "tiploc": "CASTLFD", 
            "name": "Castleford", 
            "crs": "CFD", 
            "toc": "NT", 
            "lon": -1.35465262548041
        }, 
        {
            "lat": 53.35962657210294, 
            "tiploc": "NWMILSN", 
            "name": "New Mills Newtown", 
            "crs": "NMN", 
            "toc": "NT", 
            "lon": -2.008525264295832
        }, 
        {
            "lat": 53.58871368782976, 
            "tiploc": "HTFLASF", 
            "name": "Hatfield & Stainforth", 
            "crs": "HFS", 
            "toc": "NT", 
            "lon": -1.0233772748744818
        }, 
        {
            "lat": 51.675702219771104, 
            "tiploc": "WATFDN", 
            "name": "Watford North", 
            "crs": "WFN", 
            "toc": "LM", 
            "lon": -0.3899257937696956
        }, 
        {
            "lat": 51.64872358562804, 
            "tiploc": "GOWERTN", 
            "name": "Gowerton", 
            "crs": "GWN", 
            "toc": "AW", 
            "lon": -4.035934479114915
        }, 
        {
            "lat": 51.58150104719928, 
            "tiploc": "WLTHQRD", 
            "name": "Walthamstow Queens Road", 
            "crs": "WMW", 
            "toc": "LO", 
            "lon": -0.023845887175490868
        }, 
        {
            "lat": 55.90610312153251, 
            "tiploc": "INVERKP", 
            "name": "Inverkip", 
            "crs": "INP", 
            "toc": "SR", 
            "lon": -4.872586072772624
        }, 
        {
            "lat": 52.28653801648657, 
            "tiploc": "WARWICK", 
            "name": "Warwick", 
            "crs": "WRW", 
            "toc": "CH", 
            "lon": -1.5818545007447564
        }, 
        {
            "lat": 53.55566819673773, 
            "tiploc": "WSTHOTN", 
            "name": "Westhoughton", 
            "crs": "WHG", 
            "toc": "NT", 
            "lon": -2.5237266450406066
        }, 
        {
            "lat": 51.42127371866525, 
            "tiploc": "WDON", 
            "name": "Wimbledon", 
            "crs": "WIM", 
            "toc": "SW", 
            "lon": -0.2063686576928071
        }, 
        {
            "lat": 53.14408448104717, 
            "tiploc": "CLHM", 
            "name": "Collingham", 
            "crs": "CLM", 
            "toc": "EM", 
            "lon": -0.7503938976960878
        }, 
        {
            "lat": 54.001526466394274, 
            "tiploc": "DRIFILD", 
            "name": "Driffield", 
            "crs": "DRF", 
            "toc": "NT", 
            "lon": -0.4346649942825077
        }, 
        {
            "lat": 52.51231212088594, 
            "tiploc": "NWTP", 
            "name": "Newtown (Powys)", 
            "crs": "NWT", 
            "toc": "AW", 
            "lon": -3.3113916901658813
        }, 
        {
            "lat": 51.53897060609761, 
            "tiploc": "STHNDE", 
            "name": "Southend East", 
            "crs": "SOE", 
            "toc": "CC", 
            "lon": 0.7318147145803867
        }, 
        {
            "lat": 53.14308738666073, 
            "tiploc": "PNYF", 
            "name": "Penyffordd", 
            "crs": "PNF", 
            "toc": "AW", 
            "lon": -3.054838192002942
        }, 
        {
            "lat": 51.18500966830934, 
            "tiploc": "WYEE", 
            "name": "Wye", 
            "crs": "WYE", 
            "toc": "SE", 
            "lon": 0.9293036963612706
        }, 
        {
            "lat": 54.07453979181289, 
            "tiploc": "BARELA", 
            "name": "Bare Lane", 
            "crs": "BAR", 
            "toc": "NT", 
            "lon": -2.8353303932432916
        }, 
        {
            "lat": 54.49389738980757, 
            "tiploc": "YAAM", 
            "name": "Yarm", 
            "crs": "YRM", 
            "toc": "TP", 
            "lon": -1.3515450592250695
        }, 
        {
            "lat": 51.662359111281624, 
            "tiploc": "NEATH", 
            "name": "Neath", 
            "crs": "NTH", 
            "toc": "AW", 
            "lon": -3.8072189039303455
        }, 
        {
            "lat": 0.0, 
            "tiploc": "COLONSY", 
            "name": "Colonsay (Bus)", 
            "crs": "CYA", 
            "toc": "ZB", 
            "lon": 0.0
        }, 
        {
            "lat": 51.48166900692033, 
            "tiploc": "ERITH", 
            "name": "Erith", 
            "crs": "ERH", 
            "toc": "SE", 
            "lon": 0.1750544564860437
        }, 
        {
            "lat": 51.668106648720055, 
            "tiploc": "CHLFNAL", 
            "name": "Chalfont & Latimer", 
            "crs": "CFO", 
            "toc": "LT", 
            "lon": -0.5605263752238989
        }, 
        {
            "lat": 52.004112006959396, 
            "tiploc": "FGDHGWK", 
            "name": "Fishguard & Goodwick", 
            "crs": "FGW", 
            "toc": "AW", 
            "lon": -4.994837652484635
        }, 
        {
            "lat": 51.757714574061566, 
            "tiploc": "BAYFORD", 
            "name": "Bayford", 
            "crs": "BAY", 
            "toc": "GN", 
            "lon": -0.09561001507817089
        }, 
        {
            "lat": 52.24440874629407, 
            "tiploc": "BEARLEY", 
            "name": "Bearley", 
            "crs": "BER", 
            "toc": "LM", 
            "lon": -1.7502552967947613
        }, 
        {
            "lat": 51.341974727054094, 
            "tiploc": "STNGBRN", 
            "name": "Sittingbourne", 
            "crs": "SIT", 
            "toc": "SE", 
            "lon": 0.7346843484403418
        }, 
        {
            "lat": 51.60503519953401, 
            "tiploc": "WHHRTLA", 
            "name": "White Hart Lane", 
            "crs": "WHL", 
            "toc": "LO", 
            "lon": -0.07091361472615568
        }, 
        {
            "lat": 57.319975113020284, 
            "tiploc": "DUIRNSH", 
            "name": "Duirinish", 
            "crs": "DRN", 
            "toc": "SR", 
            "lon": -5.691316014473059
        }, 
        {
            "lat": 50.832514368407196, 
            "tiploc": "STHWICK", 
            "name": "Southwick", 
            "crs": "SWK", 
            "toc": "SN", 
            "lon": -0.23596186561705684
        }, 
        {
            "lat": 51.17067570362856, 
            "tiploc": "MMIL", 
            "name": "Martin Mill", 
            "crs": "MTM", 
            "toc": "SE", 
            "lon": 1.3482170568820318
        }, 
        {
            "lat": 57.05914491324135, 
            "tiploc": "NWTM", 
            "name": "Newtonmore", 
            "crs": "NWR", 
            "toc": "SR", 
            "lon": -4.119108814773747
        }, 
        {
            "lat": 55.84340784253798, 
            "tiploc": "ADIEWEL", 
            "name": "Addiewell", 
            "crs": "ADW", 
            "toc": "SR", 
            "lon": -3.606526376773403
        }, 
        {
            "lat": 52.34606891998832, 
            "tiploc": "ALVCHRC", 
            "name": "Alvechurch", 
            "crs": "ALV", 
            "toc": "LM", 
            "lon": -1.9676605017322362
        }, 
        {
            "lat": 51.49319447779276, 
            "tiploc": "SURREYQ", 
            "name": "Surrey Quays", 
            "crs": "SQE", 
            "toc": "LO", 
            "lon": -0.04751865829118127
        }, 
        {
            "lat": 51.21815502922789, 
            "tiploc": "HGHBRDG", 
            "name": "Highbridge & Burnham", 
            "crs": "HIG", 
            "toc": "GW", 
            "lon": -2.9721533908124327
        }, 
        {
            "lat": 53.432251559820834, 
            "tiploc": "ROTHCEN", 
            "name": "Rotherham Central", 
            "crs": "RMC", 
            "toc": "NT", 
            "lon": -1.3604345607919237
        }, 
        {
            "lat": 55.81877671657123, 
            "tiploc": "NWTL", 
            "name": "Newton", 
            "crs": "NTN", 
            "toc": "SR", 
            "lon": -4.133054709382332
        }, 
        {
            "lat": 0.0, 
            "tiploc": "STONEGS", 
            "name": "Stone Granville Square (Bus)", 
            "crs": "SGQ", 
            "toc": "ZB", 
            "lon": 0.0
        }, 
        {
            "lat": 50.210433925906514, 
            "tiploc": "CBORNE", 
            "name": "Camborne", 
            "crs": "CBN", 
            "toc": "GW", 
            "lon": -5.2974106706722655
        }, 
        {
            "lat": 51.38706459783867, 
            "tiploc": "RHOOSE", 
            "name": "Rhoose Cardiff Intl Airport", 
            "crs": "RIA", 
            "toc": "AW", 
            "lon": -3.3493838353136653
        }, 
        {
            "lat": 51.25401001426, 
            "tiploc": "BOXHAWH", 
            "name": "Boxhill & Westhumble", 
            "crs": "BXW", 
            "toc": "SN", 
            "lon": -0.32848994172738305
        }, 
        {
            "lat": 53.61606124384618, 
            "tiploc": "THORNEN", 
            "name": "Thorne North", 
            "crs": "TNN", 
            "toc": "NT", 
            "lon": -0.9723307794610068
        }, 
        {
            "lat": 50.796337106104, 
            "tiploc": "FRATTON", 
            "name": "Fratton", 
            "crs": "FTN", 
            "toc": "SW", 
            "lon": -1.0739827022988337
        }, 
        {
            "lat": 52.98713313505407, 
            "tiploc": "RUABON", 
            "name": "Ruabon", 
            "crs": "RUA", 
            "toc": "AW", 
            "lon": -3.043138542341498
        }, 
        {
            "lat": 0.0, 
            "tiploc": "GLSTHAL", 
            "name": "Glastonbury (Bus)", 
            "crs": "XEA", 
            "toc": "ZB", 
            "lon": 0.0
        }, 
        {
            "lat": 53.83526625989941, 
            "tiploc": "LAYTON", 
            "name": "Layton", 
            "crs": "LAY", 
            "toc": "NT", 
            "lon": -3.0299904258660084
        }, 
        {
            "lat": 51.995310636863586, 
            "tiploc": "LLDVERY", 
            "name": "Llandovery", 
            "crs": "LLV", 
            "toc": "AW", 
            "lon": -3.80282879308186
        }, 
        {
            "lat": 54.972763518136226, 
            "tiploc": "MANORS", 
            "name": "Manors", 
            "crs": "MAS", 
            "toc": "NT", 
            "lon": -1.6047409573451414
        }, 
        {
            "lat": 51.36121218077412, 
            "tiploc": "CLYGATE", 
            "name": "Claygate", 
            "crs": "CLG", 
            "toc": "SW", 
            "lon": -0.34824778329177025
        }, 
        {
            "lat": 52.537419667934124, 
            "tiploc": "CSTR", 
            "name": "Church Stretton", 
            "crs": "CTT", 
            "toc": "AW", 
            "lon": -2.8036943079431875
        }, 
        {
            "lat": 53.97841477355686, 
            "tiploc": "GRGRAVE", 
            "name": "Gargrave", 
            "crs": "GGV", 
            "toc": "NT", 
            "lon": -2.1051703793356187
        }, 
        {
            "lat": 0.0, 
            "tiploc": "WARWUNI", 
            "name": "Warwick University (Bus)", 
            "crs": "XWU", 
            "toc": "ZB", 
            "lon": 0.0
        }, 
        {
            "lat": 0.0, 
            "tiploc": "PBRODMP", 
            "name": "Dereham Market Place (Bus)", 
            "crs": "DEB", 
            "toc": "ZB", 
            "lon": 0.0
        }, 
        {
            "lat": 53.603328010572355, 
            "tiploc": "THORNES", 
            "name": "Thorne South", 
            "crs": "TNS", 
            "toc": "NT", 
            "lon": -0.9551092058270974
        }, 
        {
            "lat": 53.08962322780806, 
            "tiploc": "CREWE", 
            "name": "Crewe", 
            "crs": "CRE", 
            "toc": "VT", 
            "lon": -2.432968823121986
        }, 
        {
            "lat": 53.046186432888, 
            "tiploc": "WREXHMC", 
            "name": "Wrexham Central", 
            "crs": "WXC", 
            "toc": "AW", 
            "lon": -2.999052511549906
        }, 
        {
            "lat": 51.41227778525325, 
            "tiploc": "CADOXTN", 
            "name": "Cadoxton", 
            "crs": "CAD", 
            "toc": "AW", 
            "lon": -3.2488953225675563
        }, 
        {
            "lat": 52.101598709773256, 
            "tiploc": "HONYBRN", 
            "name": "Honeybourne", 
            "crs": "HYB", 
            "toc": "GW", 
            "lon": -1.8337427160436979
        }, 
        {
            "lat": 54.829115571998074, 
            "tiploc": "WIGTON", 
            "name": "Wigton", 
            "crs": "WGT", 
            "toc": "NT", 
            "lon": -3.164342616719991
        }, 
        {
            "lat": 0.0, 
            "tiploc": "WLGFORD", 
            "name": "Wallingford Market Place (Bus)", 
            "crs": "XWX", 
            "toc": "ZB", 
            "lon": 0.0
        }, 
        {
            "lat": 53.050230134111416, 
            "tiploc": "WREXHMG", 
            "name": "Wrexham General", 
            "crs": "WRX", 
            "toc": "AW", 
            "lon": -3.0024430064248198
        }, 
        {
            "lat": 53.2348357504032, 
            "tiploc": "RHOSNGR", 
            "name": "Rhosneigr", 
            "crs": "RHO", 
            "toc": "AW", 
            "lon": -4.506641787894214
        }, 
        {
            "lat": 0.0, 
            "tiploc": "STNVBUS", 
            "name": "St Neots (Bus)", 
            "crs": "XEI", 
            "toc": "ZB", 
            "lon": 0.0
        }, 
        {
            "lat": 51.73433986422341, 
            "tiploc": "KIDWELY", 
            "name": "Kidwelly", 
            "crs": "KWL", 
            "toc": "AW", 
            "lon": -4.316985391784186
        }, 
        {
            "lat": 50.7328666299251, 
            "tiploc": "RYDE", 
            "name": "Ryde Esplanade", 
            "crs": "RYD", 
            "toc": "IL", 
            "lon": -1.159616115933744
        }, 
        {
            "lat": 55.81217048887149, 
            "tiploc": "PHLD", 
            "name": "Priesthill & Darnley", 
            "crs": "PTL", 
            "toc": "SR", 
            "lon": -4.342894577700912
        }, 
        {
            "lat": 53.456378555456524, 
            "tiploc": "NWTH", 
            "name": "Newton for Hyde", 
            "crs": "NWN", 
            "toc": "NT", 
            "lon": -2.067142385319519
        }, 
        {
            "lat": 0.0, 
            "tiploc": "DONCBRN", 
            "name": "Barnsley (Bus)", 
            "crs": "BNX", 
            "toc": "ZB", 
            "lon": 0.0
        }, 
        {
            "lat": 51.544109160337705, 
            "tiploc": "STNBGPK", 
            "name": "Stonebridge Park", 
            "crs": "SBP", 
            "toc": "LT", 
            "lon": -0.2758284211176524
        }, 
        {
            "lat": 50.81579723688428, 
            "tiploc": "PVNSYAW", 
            "name": "Pevensey & Westham", 
            "crs": "PEV", 
            "toc": "SN", 
            "lon": 0.32480740946206854
        }, 
        {
            "lat": 52.63467971373351, 
            "tiploc": "ACLE", 
            "name": "Acle", 
            "crs": "ACL", 
            "toc": "LE", 
            "lon": 1.5439151251229433
        }, 
        {
            "lat": 51.66333329207766, 
            "tiploc": "GORDONH", 
            "name": "Gordon Hill", 
            "crs": "GDH", 
            "toc": "GN", 
            "lon": -0.09461050664366928
        }, 
        {
            "lat": 0.0, 
            "tiploc": "DUNOON", 
            "name": "Dunoon (Bus)", 
            "crs": "DUO", 
            "toc": "ZB", 
            "lon": 0.0
        }, 
        {
            "lat": 51.42482888219944, 
            "tiploc": "LSYDNHM", 
            "name": "Lower Sydenham", 
            "crs": "LSY", 
            "toc": "SE", 
            "lon": -0.03334548173294932
        }, 
        {
            "lat": 54.92953396823464, 
            "tiploc": "SEABURN", 
            "name": "Seaburn (T & W Metro)", 
            "crs": "SEB", 
            "toc": "TW", 
            "lon": -1.3866933393897771
        }, 
        {
            "lat": 52.4140430910303, 
            "tiploc": "ABRYSTH", 
            "name": "Aberystwyth", 
            "crs": "AYW", 
            "toc": "AW", 
            "lon": -4.081893448795905
        }, 
        {
            "lat": 55.921317151033506, 
            "tiploc": "LENZIE", 
            "name": "Lenzie", 
            "crs": "LNZ", 
            "toc": "SR", 
            "lon": -4.1538903849840905
        }, 
        {
            "lat": 51.39611445846409, 
            "tiploc": "MORDENS", 
            "name": "Morden South", 
            "crs": "MDS", 
            "toc": "TL", 
            "lon": -0.19946099099884787
        }, 
        {
            "lat": 52.48308428185418, 
            "tiploc": "ADERLYP", 
            "name": "Adderley Park", 
            "crs": "ADD", 
            "toc": "LM", 
            "lon": -1.8559444316309872
        }, 
        {
            "lat": 51.25523567770788, 
            "tiploc": "EFARLGH", 
            "name": "East Farleigh", 
            "crs": "EFL", 
            "toc": "SE", 
            "lon": 0.484728951719465
        }, 
        {
            "lat": 51.171465414570896, 
            "tiploc": "SPHS", 
            "name": "Staplehurst", 
            "crs": "SPU", 
            "toc": "SE", 
            "lon": 0.5504384121380562
        }, 
        {
            "lat": 51.56362937275318, 
            "tiploc": "UPRHLWY", 
            "name": "Upper Holloway", 
            "crs": "UHL", 
            "toc": "LO", 
            "lon": -0.12951307701878048
        }, 
        {
            "lat": 52.65749264723297, 
            "tiploc": "WELSHPL", 
            "name": "Welshpool", 
            "crs": "WLP", 
            "toc": "AW", 
            "lon": -3.1398711867938824
        }, 
        {
            "lat": 53.59184499197743, 
            "tiploc": "CSTL", 
            "name": "Castleton", 
            "crs": "CAS", 
            "toc": "NT", 
            "lon": -2.1782339138977465
        }, 
        {
            "lat": 50.725190115867015, 
            "tiploc": "HMWTHY", 
            "name": "Hamworthy", 
            "crs": "HAM", 
            "toc": "SW", 
            "lon": -2.019356967921385
        }, 
        {
            "lat": 51.50697169668141, 
            "tiploc": "BRGEND", 
            "name": "Bridgend", 
            "crs": "BGN", 
            "toc": "AW", 
            "lon": -3.575275629465135
        }, 
        {
            "lat": 55.91712815260169, 
            "tiploc": "BSDN", 
            "name": "Bearsden", 
            "crs": "BRN", 
            "toc": "SR", 
            "lon": -4.332020074478121
        }, 
        {
            "lat": 0.0, 
            "tiploc": "WATRINT", 
            "name": "London Waterloo Intl", 
            "crs": "WIT", 
            "toc": "ES", 
            "lon": 0.0
        }, 
        {
            "lat": 52.021235082685294, 
            "tiploc": "ASPLEYG", 
            "name": "Aspley Guise", 
            "crs": "APG", 
            "toc": "LM", 
            "lon": -0.6323344794036312
        }, 
        {
            "lat": 0.0, 
            "tiploc": "CRDFAIR", 
            "name": "Cardiff Intl Airport (Bus)", 
            "crs": "XCF", 
            "toc": "ZB", 
            "lon": 0.0
        }, 
        {
            "lat": 53.69212974519418, 
            "tiploc": "DWBY", 
            "name": "Dewsbury", 
            "crs": "DEW", 
            "toc": "TP", 
            "lon": -1.633106395979067
        }, 
        {
            "lat": 53.79869910513901, 
            "tiploc": "BLCKS", 
            "name": "Blackpool South", 
            "crs": "BPS", 
            "toc": "NT", 
            "lon": -3.0489377781044458
        }, 
        {
            "lat": 0.0, 
            "tiploc": "DONCGPS", 
            "name": "Goldthorpe (Bus)", 
            "crs": "GOZ", 
            "toc": "ZB", 
            "lon": 0.0
        }, 
        {
            "lat": 53.544137513718844, 
            "tiploc": "KEARSLY", 
            "name": "Kearsley", 
            "crs": "KSL", 
            "toc": "NT", 
            "lon": -2.375119635585013
        }, 
        {
            "lat": 55.852116526630844, 
            "tiploc": "PSLYSTJ", 
            "name": "Paisley St James", 
            "crs": "PYJ", 
            "toc": "SR", 
            "lon": -4.442442884976519
        }, 
        {
            "lat": 51.64857273361682, 
            "tiploc": "NBARNET", 
            "name": "New Barnet", 
            "crs": "NBA", 
            "toc": "GN", 
            "lon": -0.1729971535419654
        }, 
        {
            "lat": 51.56794336191934, 
            "tiploc": "WHORNDN", 
            "name": "West Horndon", 
            "crs": "WHR", 
            "toc": "CC", 
            "lon": 0.34064364989630913
        }, 
        {
            "lat": 54.010860832646046, 
            "tiploc": "HELIFLD", 
            "name": "Hellifield", 
            "crs": "HLD", 
            "toc": "NT", 
            "lon": -2.227844609795384
        }, 
        {
            "lat": 51.51632094542236, 
            "tiploc": "RADYR", 
            "name": "Radyr", 
            "crs": "RDR", 
            "toc": "AW", 
            "lon": -3.2483527772267173
        }, 
        {
            "lat": 0.0, 
            "tiploc": "BARLSOP", 
            "name": "Barlaston Orchard Place (Bus)", 
            "crs": "BPL", 
            "toc": "ZB", 
            "lon": 0.0
        }, 
        {
            "lat": 53.281282525450905, 
            "tiploc": "VALLEY", 
            "name": "Valley", 
            "crs": "VAL", 
            "toc": "AW", 
            "lon": -4.563368726232951
        }, 
        {
            "lat": 51.2758194354727, 
            "tiploc": "BSTD", 
            "name": "Bearsted", 
            "crs": "BSD", 
            "toc": "SE", 
            "lon": 0.5775803820172281
        }, 
        {
            "lat": 51.50493727182167, 
            "tiploc": "FILTNEW", 
            "name": "Filton Abbey Wood", 
            "crs": "FIT", 
            "toc": "GW", 
            "lon": -2.562430535802052
        }, 
        {
            "lat": 54.61370122743897, 
            "tiploc": "NWTA", 
            "name": "Newton Aycliffe", 
            "crs": "NAY", 
            "toc": "NT", 
            "lon": -1.5896451944812697
        }, 
        {
            "lat": 55.77433620789626, 
            "tiploc": "BRWCKUT", 
            "name": "Berwick-upon-Tweed", 
            "crs": "BWK", 
            "toc": "GR", 
            "lon": -2.010973333835964
        }, 
        {
            "lat": 54.11899850021927, 
            "tiploc": "BAROW", 
            "name": "Barrow-in-Furness", 
            "crs": "BIF", 
            "toc": "TP", 
            "lon": -3.226120294331034
        }, 
        {
            "lat": 55.90459070188789, 
            "tiploc": "DRUMRY", 
            "name": "Drumry", 
            "crs": "DMY", 
            "toc": "SR", 
            "lon": -4.385472190728753
        }, 
        {
            "lat": 55.83749967232931, 
            "tiploc": "CKHL", 
            "name": "Corkerhill", 
            "crs": "CKH", 
            "toc": "SR", 
            "lon": -4.334292445152268
        }, 
        {
            "lat": 52.29471449804255, 
            "tiploc": "LNGBKBY", 
            "name": "Long Buckby", 
            "crs": "LBK", 
            "toc": "LM", 
            "lon": -1.0864668032433034
        }, 
        {
            "lat": 0.0, 
            "tiploc": "RADGM", 
            "name": "Radcliffe Metrolink (Bus)", 
            "crs": "RCF", 
            "toc": "ZB", 
            "lon": 0.0
        }, 
        {
            "lat": 56.156634130371344, 
            "tiploc": "BGOALAN", 
            "name": "Bridge of Allan", 
            "crs": "BEA", 
            "toc": "SR", 
            "lon": -3.957228472935605
        }, 
        {
            "lat": 50.81745871083885, 
            "tiploc": "PVNSYBY", 
            "name": "Pevensey Bay", 
            "crs": "PEB", 
            "toc": "SN", 
            "lon": 0.3429065719961726
        }, 
        {
            "lat": 53.65253444989078, 
            "tiploc": "CHORLEY", 
            "name": "Chorley", 
            "crs": "CRL", 
            "toc": "NT", 
            "lon": -2.6268406289944943
        }, 
        {
            "lat": 52.47088194257813, 
            "tiploc": "ECLR", 
            "name": "Eccles Road", 
            "crs": "ECS", 
            "toc": "LE", 
            "lon": 0.9699172234882515
        }, 
        {
            "lat": 50.8342326910073, 
            "tiploc": "FSHRSGT", 
            "name": "Fishersgate", 
            "crs": "FSG", 
            "toc": "SN", 
            "lon": -0.21942323071574707
        }, 
        {
            "lat": 51.643638136430944, 
            "tiploc": "YTRHOND", 
            "name": "Ystrad Rhondda", 
            "crs": "YSR", 
            "toc": "AW", 
            "lon": -3.4666845504363732
        }, 
        {
            "lat": 54.9028, 
            "tiploc": "UNIV", 
            "name": "University (T & W Metro)", 
            "crs": "UNV", 
            "toc": "TW", 
            "lon": -1.3921
        }, 
        {
            "lat": 55.853802271402365, 
            "tiploc": "WCALDER", 
            "name": "West Calder", 
            "crs": "WCL", 
            "toc": "SR", 
            "lon": -3.5670167140667135
        }, 
        {
            "lat": 51.478133167435665, 
            "tiploc": "GNWH", 
            "name": "Greenwich", 
            "crs": "GNW", 
            "toc": "SE", 
            "lon": -0.01333992176301878
        }, 
        {
            "lat": 50.71110071523092, 
            "tiploc": "SMALBRK", 
            "name": "Smallbrook Junction", 
            "crs": "SAB", 
            "toc": "IL", 
            "lon": -1.1541982760790552
        }, 
        {
            "lat": 52.619481258312916, 
            "tiploc": "BRUNDAL", 
            "name": "Brundall", 
            "crs": "BDA", 
            "toc": "LE", 
            "lon": 1.4392988175019434
        }, 
        {
            "lat": 0.0, 
            "tiploc": "BRSTAIR", 
            "name": "Bristol Intl Airport (Bus)", 
            "crs": "XPB", 
            "toc": "ZB", 
            "lon": 0.0
        }, 
        {
            "lat": 51.38517104254311, 
            "tiploc": "LNGCROS", 
            "name": "Longcross", 
            "crs": "LNG", 
            "toc": "SW", 
            "lon": -0.5945699831571213
        }, 
        {
            "lat": 52.625830520775665, 
            "tiploc": "PWTH", 
            "name": "Polesworth", 
            "crs": "PSW", 
            "toc": "LM", 
            "lon": -1.6105401118960283
        }, 
        {
            "lat": 52.4302114927358, 
            "tiploc": "SPHL", 
            "name": "Shippea Hill", 
            "crs": "SPP", 
            "toc": "LE", 
            "lon": 0.4133451747720132
        }, 
        {
            "lat": 54.20985662268332, 
            "tiploc": "FILEY", 
            "name": "Filey", 
            "crs": "FIL", 
            "toc": "NT", 
            "lon": -0.29384938800244176
        }, 
        {
            "lat": 54.61348284451141, 
            "tiploc": "HNGT", 
            "name": "Harrington", 
            "crs": "HRR", 
            "toc": "NT", 
            "lon": -3.5655146031551173
        }, 
        {
            "lat": 53.13887813395356, 
            "tiploc": "MTHRNGH", 
            "name": "Metheringham", 
            "crs": "MGM", 
            "toc": "EM", 
            "lon": -0.39145313345076926
        }, 
        {
            "lat": 54.35570558541832, 
            "tiploc": "RGLS", 
            "name": "Ravenglass for Eskdale", 
            "crs": "RAV", 
            "toc": "NT", 
            "lon": -3.4088136347188356
        }, 
        {
            "lat": 52.43850975998469, 
            "tiploc": "OLTON", 
            "name": "Olton", 
            "crs": "OLT", 
            "toc": "LM", 
            "lon": -1.8043093837423791
        }, 
        {
            "lat": 52.53564448650945, 
            "tiploc": "CHSRD", 
            "name": "Chester Road", 
            "crs": "CRD", 
            "toc": "LM", 
            "lon": -1.8324792994839945
        }, 
        {
            "lat": 52.67557279813696, 
            "tiploc": "SALHOUS", 
            "name": "Salhouse", 
            "crs": "SAH", 
            "toc": "LE", 
            "lon": 1.391415475190666
        }, 
        {
            "lat": 51.03403268493215, 
            "tiploc": "GLHM", 
            "name": "Gillingham (Dorset)", 
            "crs": "GIL", 
            "toc": "SW", 
            "lon": -2.2726236998469402
        }, 
        {
            "lat": 52.86634443339401, 
            "tiploc": "GUNTON", 
            "name": "Gunton", 
            "crs": "GNT", 
            "toc": "LE", 
            "lon": 1.3491163455673327
        }, 
        {
            "lat": 52.000067105382385, 
            "tiploc": "FSTR", 
            "name": "Fenny Stratford", 
            "crs": "FEN", 
            "toc": "LM", 
            "lon": -0.7159973278225868
        }, 
        {
            "lat": 50.19704715915018, 
            "tiploc": "CARBISB", 
            "name": "Carbis Bay", 
            "crs": "CBB", 
            "toc": "GW", 
            "lon": -5.4632629137903725
        }, 
        {
            "lat": 0.0, 
            "tiploc": "BSPSHIT", 
            "name": "Bishops Lydeard (Bus)", 
            "crs": "XLU", 
            "toc": "ZB", 
            "lon": 0.0
        }, 
        {
            "lat": 52.99969382491634, 
            "tiploc": "BULWELL", 
            "name": "Bulwell", 
            "crs": "BLW", 
            "toc": "EM", 
            "lon": -1.1962304761383986
        }, 
        {
            "lat": 50.86212716045091, 
            "tiploc": "FAMR", 
            "name": "Falmer", 
            "crs": "FMR", 
            "toc": "SN", 
            "lon": -0.08738550084588205
        }, 
        {
            "lat": 51.83890980843886, 
            "tiploc": "WNOTLEY", 
            "name": "White Notley", 
            "crs": "WNY", 
            "toc": "LE", 
            "lon": 0.5958634308177753
        }, 
        {
            "lat": 53.48308168507671, 
            "tiploc": "SLFDORD", 
            "name": "Salford Central", 
            "crs": "SFD", 
            "toc": "NT", 
            "lon": -2.254840687983262
        }, 
        {
            "lat": 55.851290124268594, 
            "tiploc": "BRGDDIE", 
            "name": "Bargeddie", 
            "crs": "BGI", 
            "toc": "SR", 
            "lon": -4.073807303983155
        }, 
        {
            "lat": 53.429251655854706, 
            "tiploc": "WOODLEY", 
            "name": "Woodley", 
            "crs": "WLY", 
            "toc": "NT", 
            "lon": -2.093271550485685
        }, 
        {
            "lat": 53.0920646818009, 
            "tiploc": "BETSYCD", 
            "name": "Betws-y-Coed", 
            "crs": "BYC", 
            "toc": "AW", 
            "lon": -3.800861272935723
        }, 
        {
            "lat": 52.37993485879952, 
            "tiploc": "WYTH", 
            "name": "Wythall", 
            "crs": "WYT", 
            "toc": "LM", 
            "lon": -1.8655349326191222
        }, 
        {
            "lat": 52.384480782099516, 
            "tiploc": "KDRMNST", 
            "name": "Kidderminster", 
            "crs": "KID", 
            "toc": "LM", 
            "lon": -2.2384707238434625
        }, 
        {
            "lat": 51.4029912575127, 
            "tiploc": "SMERTON", 
            "name": "South Merton", 
            "crs": "SMO", 
            "toc": "TL", 
            "lon": -0.20515747071830376
        }, 
        {
            "lat": 53.61919901630419, 
            "tiploc": "ULCEBY", 
            "name": "Ulceby", 
            "crs": "ULC", 
            "toc": "NT", 
            "lon": -0.3008267607211642
        }, 
        {
            "lat": 53.57231908265824, 
            "tiploc": "ADWICK", 
            "name": "Adwick", 
            "crs": "AWK", 
            "toc": "NT", 
            "lon": -1.1803562442158075
        }, 
        {
            "lat": 56.76021269634052, 
            "tiploc": "CORROUR", 
            "name": "Corrour", 
            "crs": "CRR", 
            "toc": "SR", 
            "lon": -4.690600153436945
        }, 
        {
            "lat": 51.25429201062932, 
            "tiploc": "OVTN", 
            "name": "Overton", 
            "crs": "OVR", 
            "toc": "SW", 
            "lon": -1.2592676033460328
        }, 
        {
            "lat": 53.31515227974162, 
            "tiploc": "RTFD", 
            "name": "Retford", 
            "crs": "RET", 
            "toc": "GR", 
            "lon": -0.947884024701815
        }, 
        {
            "lat": 50.8951507027228, 
            "tiploc": "SOTNTQ", 
            "name": "Southampton Town Quay (Bus)", 
            "crs": "STQ", 
            "toc": "ZB", 
            "lon": -1.4058303315722478
        }, 
        {
            "lat": 52.47187133321373, 
            "tiploc": "BRDS", 
            "name": "Bordesley", 
            "crs": "BBS", 
            "toc": "LM", 
            "lon": -1.8777686447696424
        }, 
        {
            "lat": 54.195720441645335, 
            "tiploc": "GOVS", 
            "name": "Grange-over-Sands", 
            "crs": "GOS", 
            "toc": "TP", 
            "lon": -2.902747274264969
        }, 
        {
            "lat": 55.354734808291454, 
            "tiploc": "MAYBOLE", 
            "name": "Maybole", 
            "crs": "MAY", 
            "toc": "SR", 
            "lon": -4.685288657246588
        }, 
        {
            "lat": 50.89576272751939, 
            "tiploc": "YTMNSTR", 
            "name": "Yetminster", 
            "crs": "YET", 
            "toc": "GW", 
            "lon": -2.573755633127097
        }, 
        {
            "lat": 51.193898925872205, 
            "tiploc": "LEIGHK", 
            "name": "Leigh (Kent)", 
            "crs": "LIH", 
            "toc": "SN", 
            "lon": 0.21049492538885142
        }, 
        {
            "lat": 50.770098437294195, 
            "tiploc": "SAMPCRT", 
            "name": "Sampford Courtenay", 
            "crs": "SMC", 
            "toc": "GW", 
            "lon": -3.948890978995091
        }, 
        {
            "lat": 51.51187861986129, 
            "tiploc": "SLOUGH", 
            "name": "Slough", 
            "crs": "SLO", 
            "toc": "GW", 
            "lon": -0.5915104151514504
        }, 
        {
            "lat": 56.85526676455846, 
            "tiploc": "LCEILOB", 
            "name": "Loch Eil Outward Bound", 
            "crs": "LHE", 
            "toc": "SR", 
            "lon": -5.191576470389345
        }, 
        {
            "lat": 51.4870595019825, 
            "tiploc": "WBRMPTN", 
            "name": "West Brompton", 
            "crs": "WBP", 
            "toc": "LT", 
            "lon": -0.19559263318827042
        }, 
        {
            "lat": 51.41235581639422, 
            "tiploc": "NRBITON", 
            "name": "Norbiton", 
            "crs": "NBT", 
            "toc": "SW", 
            "lon": -0.28402502143145947
        }, 
        {
            "lat": 53.336713348164245, 
            "tiploc": "KVTNPK", 
            "name": "Kiveton Park", 
            "crs": "KVP", 
            "toc": "NT", 
            "lon": -1.2398445359901393
        }, 
        {
            "lat": 53.95832261310232, 
            "tiploc": "PANNAL", 
            "name": "Pannal", 
            "crs": "PNL", 
            "toc": "NT", 
            "lon": -1.533466981334974
        }, 
        {
            "lat": 0.0, 
            "tiploc": "WANTMPL", 
            "name": "Wantage (Bus)", 
            "crs": "XDC", 
            "toc": "ZB", 
            "lon": 0.0
        }, 
        {
            "lat": 53.399437788562416, 
            "tiploc": "MELS", 
            "name": "Meols", 
            "crs": "MEO", 
            "toc": "ME", 
            "lon": -3.154269142590225
        }, 
        {
            "lat": 51.60984297706446, 
            "tiploc": "SEERGRN", 
            "name": "Seer Green", 
            "crs": "SRG", 
            "toc": "CH", 
            "lon": -0.607818519867759
        }, 
        {
            "lat": 52.965085588137555, 
            "tiploc": "CRTN", 
            "name": "Carlton", 
            "crs": "CTO", 
            "toc": "EM", 
            "lon": -1.0786549560253254
        }, 
        {
            "lat": 50.85917013389891, 
            "tiploc": "GLYNDE", 
            "name": "Glynde", 
            "crs": "GLY", 
            "toc": "SN", 
            "lon": 0.07007729378930234
        }, 
        {
            "lat": 53.163561318802515, 
            "tiploc": "MFLDWSE", 
            "name": "Mansfield Woodhouse", 
            "crs": "MSW", 
            "toc": "EM", 
            "lon": -1.2018485119695417
        }, 
        {
            "lat": 55.92944573172912, 
            "tiploc": "IBMM", 
            "name": "IBM", 
            "crs": "IBM", 
            "toc": "SR", 
            "lon": -4.827239930392862
        }, 
        {
            "lat": 55.097002950822606, 
            "tiploc": "BRRHL", 
            "name": "Barrhill", 
            "crs": "BRL", 
            "toc": "SR", 
            "lon": -4.781780960824862
        }, 
        {
            "lat": 51.71242365812675, 
            "tiploc": "TRDYRHW", 
            "name": "Troed-y-rhiw", 
            "crs": "TRD", 
            "toc": "AW", 
            "lon": -3.3467439510344223
        }, 
        {
            "lat": 53.64627016995213, 
            "tiploc": "MEOLSCP", 
            "name": "Meols Cop", 
            "crs": "MEC", 
            "toc": "NT", 
            "lon": -2.9758037394276884
        }, 
        {
            "lat": 0.0, 
            "tiploc": "BURY", 
            "name": "Bury Metrolink (Bus)", 
            "crs": "BUR", 
            "toc": "ZB", 
            "lon": 0.0
        }, 
        {
            "lat": 50.73127895855007, 
            "tiploc": "POLSBDG", 
            "name": "Polsloe Bridge", 
            "crs": "POL", 
            "toc": "GW", 
            "lon": -3.5019471070107016
        }, 
        {
            "lat": 51.64779889604921, 
            "tiploc": "TONPNTR", 
            "name": "Ton Pentre", 
            "crs": "TPN", 
            "toc": "AW", 
            "lon": -3.4861872909517815
        }, 
        {
            "lat": 53.16303412389489, 
            "tiploc": "BCKY", 
            "name": "Buckley", 
            "crs": "BCK", 
            "toc": "AW", 
            "lon": -3.0559256412443463
        }, 
        {
            "lat": 55.86468053392175, 
            "tiploc": "CHRNGXG", 
            "name": "Charing Cross (Glasgow)", 
            "crs": "CHC", 
            "toc": "SR", 
            "lon": -4.269819900019294
        }, 
        {
            "lat": 51.541893184624854, 
            "tiploc": "STFD", 
            "name": "Stratford (London)", 
            "crs": "SRA", 
            "toc": "XR", 
            "lon": -0.0033967355799776923
        }, 
        {
            "lat": 50.81835207999152, 
            "tiploc": "WWRTHNG", 
            "name": "West Worthing", 
            "crs": "WWO", 
            "toc": "SN", 
            "lon": -0.392985188238169
        }, 
        {
            "lat": 53.396221724767685, 
            "tiploc": "ROHL", 
            "name": "Rose Hill Marple", 
            "crs": "RSH", 
            "toc": "NT", 
            "lon": -2.0765215016483203
        }, 
        {
            "lat": 51.78783865884637, 
            "tiploc": "SMARGRT", 
            "name": "St Margarets (Hertfordshire)", 
            "crs": "SMT", 
            "toc": "LE", 
            "lon": 0.0012691377785753587
        }, 
        {
            "lat": 51.63394021674655, 
            "tiploc": "WNMHILL", 
            "name": "Winchmore Hill", 
            "crs": "WIH", 
            "toc": "GN", 
            "lon": -0.10090023464919244
        }, 
        {
            "lat": 55.691045156800065, 
            "tiploc": "CRSTRS", 
            "name": "Carstairs", 
            "crs": "CRS", 
            "toc": "SR", 
            "lon": -3.6684732102532243
        }, 
        {
            "lat": 51.530881477704284, 
            "tiploc": "KNGX", 
            "name": "London Kings Cross", 
            "crs": "KGX", 
            "toc": "RT", 
            "lon": -0.12292598600691025
        }, 
        {
            "lat": 0.0, 
            "tiploc": "ULLAPOL", 
            "name": "Ullapool (Bus)", 
            "crs": "ULP", 
            "toc": "ZB", 
            "lon": 0.0
        }, 
        {
            "lat": 0.0, 
            "tiploc": "BCSTBUS", 
            "name": "Bicester (Bus)", 
            "crs": "XEZ", 
            "toc": "ZB", 
            "lon": 0.0
        }, 
        {
            "lat": 51.51253481634216, 
            "tiploc": "LIMHSE", 
            "name": "Limehouse", 
            "crs": "LHS", 
            "toc": "CC", 
            "lon": -0.039802861988681146
        }, 
        {
            "lat": 55.8110982456796, 
            "tiploc": "THLB", 
            "name": "Thornliebank", 
            "crs": "THB", 
            "toc": "SR", 
            "lon": -4.311707064984751
        }, 
        {
            "lat": 53.58836610355137, 
            "tiploc": "DRTN", 
            "name": "Darton", 
            "crs": "DRT", 
            "toc": "NT", 
            "lon": -1.531657433734141
        }, 
        {
            "lat": 53.3209147016927, 
            "tiploc": "LUDO", 
            "name": "Llandudno", 
            "crs": "LLD", 
            "toc": "AW", 
            "lon": -3.827001105907067
        }, 
        {
            "lat": 57.58024507758819, 
            "tiploc": "NAIRN", 
            "name": "Nairn", 
            "crs": "NRN", 
            "toc": "SR", 
            "lon": -3.8720000322654813
        }, 
        {
            "lat": 55.91881242389054, 
            "tiploc": "KNGW", 
            "name": "Kingsknowe", 
            "crs": "KGE", 
            "toc": "SR", 
            "lon": -3.264966147758671
        }, 
        {
            "lat": 53.654300809612515, 
            "tiploc": "THABBEY", 
            "name": "Thornton Abbey", 
            "crs": "TNA", 
            "toc": "NT", 
            "lon": -0.323021480361524
        }, 
        {
            "lat": 51.24064790454977, 
            "tiploc": "LRDGFD", 
            "name": "London Road (Guildford)", 
            "crs": "LRD", 
            "toc": "SW", 
            "lon": -0.5650689527735233
        }, 
        {
            "lat": 51.44322301298383, 
            "tiploc": "BALHAM", 
            "name": "Balham", 
            "crs": "BAL", 
            "toc": "SN", 
            "lon": -0.15242448914119103
        }, 
        {
            "lat": 50.9015, 
            "tiploc": "CALAFGV", 
            "name": "Calais Frethun", 
            "crs": "FRH", 
            "toc": "ES", 
            "lon": 1.81152
        }, 
        {
            "lat": 53.3918144893738, 
            "tiploc": "WRGT", 
            "name": "Warrington Central", 
            "crs": "WAC", 
            "toc": "TP", 
            "lon": -2.5931682922138877
        }, 
        {
            "lat": 52.109196969222225, 
            "tiploc": "GTMLVRN", 
            "name": "Great Malvern", 
            "crs": "GMV", 
            "toc": "LM", 
            "lon": -2.318270808130817
        }, 
        {
            "lat": 0.0, 
            "tiploc": "MRTECTR", 
            "name": "Moretonhampstead (Bus)", 
            "crs": "XEK", 
            "toc": "ZB", 
            "lon": 0.0
        }, 
        {
            "lat": 56.20101453484031, 
            "tiploc": "MKIN", 
            "name": "Markinch", 
            "crs": "MNC", 
            "toc": "SR", 
            "lon": -3.1307868475353415
        }, 
        {
            "lat": 52.77742399055861, 
            "tiploc": "WORSTED", 
            "name": "Worstead", 
            "crs": "WRT", 
            "toc": "LE", 
            "lon": 1.404081230149746
        }, 
        {
            "lat": 51.77668614916963, 
            "tiploc": "EBWVTN", 
            "name": "Ebbw Vale Town", 
            "crs": "EBB", 
            "toc": "AW", 
            "lon": -3.2025768816539606
        }, 
        {
            "lat": 52.09071487803867, 
            "tiploc": "MELDRTH", 
            "name": "Meldreth", 
            "crs": "MEL", 
            "toc": "GN", 
            "lon": 0.008941215037779808
        }, 
        {
            "lat": 52.96814062989019, 
            "tiploc": "BLYBDGE", 
            "name": "Blythe Bridge", 
            "crs": "BYB", 
            "toc": "EM", 
            "lon": -2.0669611116633297
        }, 
        {
            "lat": 53.57292553181959, 
            "tiploc": "LOSTCKP", 
            "name": "Lostock", 
            "crs": "LOT", 
            "toc": "NT", 
            "lon": -2.4942660807285746
        }, 
        {
            "lat": 51.897395602561794, 
            "tiploc": "CHLTNHM", 
            "name": "Cheltenham Spa", 
            "crs": "CNM", 
            "toc": "GW", 
            "lon": -2.0996199573135192
        }, 
        {
            "lat": 53.82036838324465, 
            "tiploc": "FRZNGHL", 
            "name": "Frizinghall", 
            "crs": "FZH", 
            "toc": "NT", 
            "lon": -1.769001070885596
        }, 
        {
            "lat": 0.0, 
            "tiploc": "DLTNTVA", 
            "name": "Tees Valley Airport (Bus)", 
            "crs": "TVA", 
            "toc": "ZB", 
            "lon": 0.0
        }, 
        {
            "lat": 53.28394207597431, 
            "tiploc": "LANDUDJ", 
            "name": "Llandudno Junction", 
            "crs": "LLJ", 
            "toc": "AW", 
            "lon": -3.8091017849213955
        }, 
        {
            "lat": 51.559106197898565, 
            "tiploc": "UPMNSP6", 
            "name": "Upminster", 
            "crs": "UPM", 
            "toc": "CC", 
            "lon": 0.25088392480396865
        }, 
        {
            "lat": 55.94665365962121, 
            "tiploc": "DMBRTNC", 
            "name": "Dumbarton Central", 
            "crs": "DBC", 
            "toc": "SR", 
            "lon": -4.566920512378465
        }, 
        {
            "lat": 55.68215252093108, 
            "tiploc": "STEWRTN", 
            "name": "Stewarton", 
            "crs": "STT", 
            "toc": "SR", 
            "lon": -4.518057462303498
        }, 
        {
            "lat": 55.94224567102843, 
            "tiploc": "DMBRTNE", 
            "name": "Dumbarton East", 
            "crs": "DBE", 
            "toc": "SR", 
            "lon": -4.554136639676801
        }, 
        {
            "lat": 52.45411488409697, 
            "tiploc": "TYSL", 
            "name": "Tyseley", 
            "crs": "TYS", 
            "toc": "LM", 
            "lon": -1.8391160057389504
        }, 
        {
            "lat": 51.431662471639015, 
            "tiploc": "DINASP", 
            "name": "Dinas Powys", 
            "crs": "DNS", 
            "toc": "AW", 
            "lon": -3.218351511495117
        }, 
        {
            "lat": 56.45648516162369, 
            "tiploc": "DUNDETB", 
            "name": "Dundee", 
            "crs": "DEE", 
            "toc": "SR", 
            "lon": -2.9712045352214917
        }, 
        {
            "lat": 56.27378066579779, 
            "tiploc": "LADYBNK", 
            "name": "Ladybank", 
            "crs": "LDY", 
            "toc": "SR", 
            "lon": -3.1222751375888422
        }, 
        {
            "lat": 51.68352561101079, 
            "tiploc": "PMBRYBP", 
            "name": "Pembrey & Burry Port", 
            "crs": "PBY", 
            "toc": "AW", 
            "lon": -4.247841053420649
        }, 
        {
            "lat": 53.57431968975079, 
            "tiploc": "GRMSBYD", 
            "name": "Grimsby Docks", 
            "crs": "GMD", 
            "toc": "NT", 
            "lon": -0.0756172819542954
        }, 
        {
            "lat": 53.86796129614441, 
            "tiploc": "KEIGHLY", 
            "name": "Keighley", 
            "crs": "KEI", 
            "toc": "NT", 
            "lon": -1.9016494845888396
        }, 
        {
            "lat": 50.78014159961512, 
            "tiploc": "BSSN", 
            "name": "Bishopstone", 
            "crs": "BIP", 
            "toc": "SN", 
            "lon": 0.08275692749959099
        }, 
        {
            "lat": 51.51436162964232, 
            "tiploc": "SLEHOPE", 
            "name": "Stanford-le-Hope", 
            "crs": "SFO", 
            "toc": "CC", 
            "lon": 0.4230357516493626
        }, 
        {
            "lat": 56.46715948919992, 
            "tiploc": "BRFRY", 
            "name": "Broughty Ferry", 
            "crs": "BYF", 
            "toc": "SR", 
            "lon": -2.8731522873335
        }, 
        {
            "lat": 55.89762955523126, 
            "tiploc": "MRYHILL", 
            "name": "Maryhill", 
            "crs": "MYH", 
            "toc": "SR", 
            "lon": -4.300745023646487
        }, 
        {
            "lat": 56.00512165275773, 
            "tiploc": "DREMJ", 
            "name": "Drem", 
            "crs": "DRM", 
            "toc": "SR", 
            "lon": -2.7860478119682632
        }, 
        {
            "lat": 0.0, 
            "tiploc": "MINEBAN", 
            "name": "Minehead Bancks Street (Bus)", 
            "crs": "XBW", 
            "toc": "ZB", 
            "lon": 0.0
        }, 
        {
            "lat": 51.66581369411219, 
            "tiploc": "NBRWGE", 
            "name": "Newbridge", 
            "crs": "NBE", 
            "toc": "AW", 
            "lon": -3.1428851095734682
        }, 
        {
            "lat": 53.19050970454007, 
            "tiploc": "WNSFD", 
            "name": "Winsford", 
            "crs": "WSF", 
            "toc": "LM", 
            "lon": -2.4945993149814876
        }, 
        {
            "lat": 51.38909518483323, 
            "tiploc": "TDITTON", 
            "name": "Thames Ditton", 
            "crs": "THD", 
            "toc": "SW", 
            "lon": -0.33915217599598757
        }, 
        {
            "lat": 53.99632822513706, 
            "tiploc": "HAMERTN", 
            "name": "Hammerton", 
            "crs": "HMM", 
            "toc": "NT", 
            "lon": -1.2840955874829147
        }, 
        {
            "lat": 51.16877344760636, 
            "tiploc": "HORLEY", 
            "name": "Horley", 
            "crs": "HOR", 
            "toc": "SN", 
            "lon": -0.16105357729562952
        }, 
        {
            "lat": 51.99533270082938, 
            "tiploc": "BLTCHLY", 
            "name": "Bletchley", 
            "crs": "BLY", 
            "toc": "LM", 
            "lon": -0.7363204707714394
        }, 
        {
            "lat": 50.84821300398625, 
            "tiploc": "ARUNDEL", 
            "name": "Arundel", 
            "crs": "ARU", 
            "toc": "SN", 
            "lon": -0.546174276346412
        }, 
        {
            "lat": 51.296603575677665, 
            "tiploc": "FRBRMN", 
            "name": "Farnborough (Main)", 
            "crs": "FNB", 
            "toc": "SW", 
            "lon": -0.7557256871661012
        }, 
        {
            "lat": 53.10786147620754, 
            "tiploc": "CAERGWL", 
            "name": "Caergwrle", 
            "crs": "CGW", 
            "toc": "AW", 
            "lon": -3.032912732311197
        }, 
        {
            "lat": 51.40740987543696, 
            "tiploc": "MHERON", 
            "name": "Martins Heron", 
            "crs": "MAO", 
            "toc": "SW", 
            "lon": -0.7243966507152414
        }, 
        {
            "lat": 51.25790633727494, 
            "tiploc": "OXTEDBY", 
            "name": "Oxted", 
            "crs": "OXT", 
            "toc": "SN", 
            "lon": -0.004833575342926261
        }, 
        {
            "lat": 53.48477573466068, 
            "tiploc": "PTRCRFT", 
            "name": "Patricroft", 
            "crs": "PAT", 
            "toc": "NT", 
            "lon": -2.358244632942695
        }, 
        {
            "lat": 53.56342662469799, 
            "tiploc": "GRMSBYT", 
            "name": "Grimsby Town", 
            "crs": "GMB", 
            "toc": "TP", 
            "lon": -0.08698394637622033
        }, 
        {
            "lat": 51.672626214705346, 
            "tiploc": "TURKYST", 
            "name": "Turkey Street", 
            "crs": "TUR", 
            "toc": "LO", 
            "lon": -0.04721663292057485
        }, 
        {
            "lat": 0.0, 
            "tiploc": "WLLSPRI", 
            "name": "Wells (Bus)", 
            "crs": "XDH", 
            "toc": "ZB", 
            "lon": 0.0
        }, 
        {
            "lat": 0.0, 
            "tiploc": "MIDSTHL", 
            "name": "Midsomer Norton (Bus)", 
            "crs": "XBR", 
            "toc": "ZB", 
            "lon": 0.0
        }, 
        {
            "lat": 51.54080261794074, 
            "tiploc": "TAFFSWL", 
            "name": "Taffs Well", 
            "crs": "TAF", 
            "toc": "AW", 
            "lon": -3.262937841979913
        }, 
        {
            "lat": 51.872435754807455, 
            "tiploc": "LUTOAPY", 
            "name": "Luton Airport Parkway", 
            "crs": "LTN", 
            "toc": "TL", 
            "lon": -0.3958810013032624
        }, 
        {
            "lat": 0.0, 
            "tiploc": "BATHBUS", 
            "name": "Bath Bus Station", 
            "crs": "XDO", 
            "toc": "ZB", 
            "lon": 0.0
        }, 
        {
            "lat": 51.736370675488565, 
            "tiploc": "CHLMSFD", 
            "name": "Chelmsford", 
            "crs": "CHM", 
            "toc": "LE", 
            "lon": 0.46857210000913924
        }, 
        {
            "lat": 51.43393328749854, 
            "tiploc": "FULWELL", 
            "name": "Fulwell", 
            "crs": "FLW", 
            "toc": "SW", 
            "lon": -0.3494675954480056
        }, 
        {
            "lat": 55.81147954079327, 
            "tiploc": "HRTW", 
            "name": "Hartwood", 
            "crs": "HTW", 
            "toc": "SR", 
            "lon": -3.839321832118059
        }, 
        {
            "lat": 50.12167154676524, 
            "tiploc": "PENZNCE", 
            "name": "Penzance", 
            "crs": "PNZ", 
            "toc": "GW", 
            "lon": -5.532565133194136
        }, 
        {
            "lat": 52.34367843630911, 
            "tiploc": "WDND", 
            "name": "Wood End", 
            "crs": "WDE", 
            "toc": "LM", 
            "lon": -1.8442137067976367
        }, 
        {
            "lat": 53.26741971201112, 
            "tiploc": "GLNCNWY", 
            "name": "Glan Conwy", 
            "crs": "GCW", 
            "toc": "AW", 
            "lon": -3.797727336184678
        }, 
        {
            "lat": 50.83521447702881, 
            "tiploc": "HOVE", 
            "name": "Hove", 
            "crs": "HOV", 
            "toc": "SN", 
            "lon": -0.17068739192879606
        }, 
        {
            "lat": 51.61014893532782, 
            "tiploc": "TREHAFD", 
            "name": "Trehafod", 
            "crs": "TRH", 
            "toc": "AW", 
            "lon": -3.3809745096114905
        }, 
        {
            "lat": 52.39183003510532, 
            "tiploc": "WHLE", 
            "name": "Whitlocks End", 
            "crs": "WTE", 
            "toc": "LM", 
            "lon": -1.8515388432401703
        }, 
        {
            "lat": 51.54611376388109, 
            "tiploc": "DALS", 
            "name": "Dalston Junction", 
            "crs": "DLJ", 
            "toc": "LO", 
            "lon": -0.07513756624735955
        }, 
        {
            "lat": 51.4018003713731, 
            "tiploc": "VRGNWTR", 
            "name": "Virginia Water", 
            "crs": "VIR", 
            "toc": "SW", 
            "lon": -0.5621738254365595
        }, 
        {
            "lat": 54.75895457618836, 
            "tiploc": "ASPTRIA", 
            "name": "Aspatria", 
            "crs": "ASP", 
            "toc": "NT", 
            "lon": -3.3318735575574396
        }, 
        {
            "lat": 53.04188009326136, 
            "tiploc": "LNGP", 
            "name": "Longport", 
            "crs": "LPT", 
            "toc": "EM", 
            "lon": -2.216447844552954
        }, 
        {
            "lat": 50.870630110043486, 
            "tiploc": "LEWES", 
            "name": "Lewes", 
            "crs": "LWS", 
            "toc": "SN", 
            "lon": 0.01133052139248327
        }, 
        {
            "lat": 52.366579482102004, 
            "tiploc": "ELWD", 
            "name": "Earlswood (West Midlands)", 
            "crs": "EWD", 
            "toc": "LM", 
            "lon": -1.8611694937902326
        }, 
        {
            "lat": 51.24452148390875, 
            "tiploc": "WANBRO", 
            "name": "Wanborough", 
            "crs": "WAN", 
            "toc": "SW", 
            "lon": -0.6675877675716477
        }, 
        {
            "lat": 51.24818735936198, 
            "tiploc": "BTCHWTH", 
            "name": "Betchworth", 
            "crs": "BTO", 
            "toc": "GW", 
            "lon": -0.26697300601745594
        }, 
        {
            "lat": 53.24952242503591, 
            "tiploc": "FLINT", 
            "name": "Flint", 
            "crs": "FLN", 
            "toc": "AW", 
            "lon": -3.1329930794723206
        }, 
        {
            "lat": 52.35737721530825, 
            "tiploc": "BKNELL", 
            "name": "Bucknell", 
            "crs": "BUK", 
            "toc": "AW", 
            "lon": -2.9473778067564362
        }, 
        {
            "lat": 52.11429662463637, 
            "tiploc": "LLGMMRW", 
            "name": "Llangammarch", 
            "crs": "LLM", 
            "toc": "AW", 
            "lon": -3.5548165204289437
        }, 
        {
            "lat": 53.15785265238798, 
            "tiploc": "CONGLTN", 
            "name": "Congleton", 
            "crs": "CNG", 
            "toc": "NT", 
            "lon": -2.1925799855316686
        }, 
        {
            "lat": 51.20677486987703, 
            "tiploc": "WRMNSTR", 
            "name": "Warminster", 
            "crs": "WMN", 
            "toc": "GW", 
            "lon": -2.176734034923989
        }, 
        {
            "lat": 51.46808498823016, 
            "tiploc": "MRTLKE", 
            "name": "Mortlake", 
            "crs": "MTL", 
            "toc": "SW", 
            "lon": -0.2671056424193278
        }, 
        {
            "lat": 51.12785457904066, 
            "tiploc": "BRDGWTR", 
            "name": "Bridgwater", 
            "crs": "BWT", 
            "toc": "GW", 
            "lon": -2.9904054460695226
        }, 
        {
            "lat": 52.942870519384506, 
            "tiploc": "BARLSTN", 
            "name": "Barlaston", 
            "crs": "BRT", 
            "toc": "LM", 
            "lon": -2.168111108173998
        }, 
        {
            "lat": 51.55247476457618, 
            "tiploc": "MANRPK", 
            "name": "Manor Park", 
            "crs": "MNP", 
            "toc": "XR", 
            "lon": 0.046341541016394754
        }, 
        {
            "lat": 50.969248424712156, 
            "tiploc": "ELGH", 
            "name": "Eastleigh", 
            "crs": "ESL", 
            "toc": "SW", 
            "lon": -1.3500844830684007
        }, 
        {
            "lat": 50.89675187314307, 
            "tiploc": "SHOLING", 
            "name": "Sholing", 
            "crs": "SHO", 
            "toc": "SW", 
            "lon": -1.3649149688340512
        }, 
        {
            "lat": 54.43747979851764, 
            "tiploc": "EGTON", 
            "name": "Egton", 
            "crs": "EGT", 
            "toc": "NT", 
            "lon": -0.7614649286280512
        }, 
        {
            "lat": 51.55520832771318, 
            "tiploc": "HMPSTDH", 
            "name": "Hampstead Heath", 
            "crs": "HDH", 
            "toc": "LO", 
            "lon": -0.16570541675743666
        }, 
        {
            "lat": 51.38125071015674, 
            "tiploc": "WRCSTRP", 
            "name": "Worcester Park", 
            "crs": "WCP", 
            "toc": "SW", 
            "lon": -0.2451673022213078
        }, 
        {
            "lat": 0.0, 
            "tiploc": "DLTNRIM", 
            "name": "Richmond, Nth Yorks (Bus)", 
            "crs": "RMK", 
            "toc": "ZB", 
            "lon": 0.0
        }, 
        {
            "lat": 51.82575154811538, 
            "tiploc": "ISLIP", 
            "name": "Islip", 
            "crs": "ISP", 
            "toc": "CH", 
            "lon": -1.23818167009187
        }, 
        {
            "lat": 51.53756837037452, 
            "tiploc": "THOPBAY", 
            "name": "Thorpe Bay", 
            "crs": "TPB", 
            "toc": "CC", 
            "lon": 0.7617279575005359
        }, 
        {
            "lat": 51.57130001860291, 
            "tiploc": "CROUCHH", 
            "name": "Crouch Hill", 
            "crs": "CRH", 
            "toc": "LO", 
            "lon": -0.11714881368883445
        }, 
        {
            "lat": 51.130231988476794, 
            "tiploc": "TUNWELL", 
            "name": "Tunbridge Wells", 
            "crs": "TBW", 
            "toc": "SE", 
            "lon": 0.2628103116817585
        }, 
        {
            "lat": 56.27484862745999, 
            "tiploc": "GLNEGLS", 
            "name": "Gleneagles", 
            "crs": "GLE", 
            "toc": "SR", 
            "lon": -3.7311679052629314
        }, 
        {
            "lat": 54.45485543206214, 
            "tiploc": "KSTP", 
            "name": "Kirkby Stephen", 
            "crs": "KSW", 
            "toc": "NT", 
            "lon": -2.368596587917768
        }, 
        {
            "lat": 54.52462118835162, 
            "tiploc": "ALLENSW", 
            "name": "Allens West", 
            "crs": "ALW", 
            "toc": "NT", 
            "lon": -1.3611167227003185
        }, 
        {
            "lat": 51.617832180295466, 
            "tiploc": "DINASR", 
            "name": "Dinas Rhondda", 
            "crs": "DMG", 
            "toc": "AW", 
            "lon": -3.437541043527335
        }, 
        {
            "lat": 51.360672427214915, 
            "tiploc": "BRSR", 
            "name": "Broadstairs", 
            "crs": "BSR", 
            "toc": "SE", 
            "lon": 1.4335605581507305
        }, 
        {
            "lat": 0.0, 
            "tiploc": "HOLSLIB", 
            "name": "Holsworthy (Bus)", 
            "crs": "XEE", 
            "toc": "ZB", 
            "lon": 0.0
        }, 
        {
            "lat": 52.85640771296446, 
            "tiploc": "WEMM", 
            "name": "Wem", 
            "crs": "WEM", 
            "toc": "AW", 
            "lon": -2.7180168678882506
        }, 
        {
            "lat": 51.36403922622502, 
            "tiploc": "CHSSN", 
            "name": "Chessington North", 
            "crs": "CSN", 
            "toc": "SW", 
            "lon": -0.3006991277268866
        }, 
        {
            "lat": 52.45368783250652, 
            "tiploc": "HRLNGRD", 
            "name": "Harling Road", 
            "crs": "HRD", 
            "toc": "LE", 
            "lon": 0.9091422879025278
        }, 
        {
            "lat": 56.30196545330362, 
            "tiploc": "ARDLUI", 
            "name": "Ardlui", 
            "crs": "AUI", 
            "toc": "SR", 
            "lon": -4.7216573210900314
        }, 
        {
            "lat": 51.0889636957593, 
            "tiploc": "ERIDGE", 
            "name": "Eridge", 
            "crs": "ERI", 
            "toc": "SN", 
            "lon": 0.20143172133156884
        }, 
        {
            "lat": 51.03323518245118, 
            "tiploc": "APDR", 
            "name": "Appledore (Kent)", 
            "crs": "APD", 
            "toc": "SN", 
            "lon": 0.8163415505736319
        }, 
        {
            "lat": 53.66848097277538, 
            "tiploc": "DEIGHTN", 
            "name": "Deighton", 
            "crs": "DHN", 
            "toc": "NT", 
            "lon": -1.7518964097527505
        }, 
        {
            "lat": 55.73888619271206, 
            "tiploc": "GLGN", 
            "name": "Glengarnock", 
            "crs": "GLG", 
            "toc": "SR", 
            "lon": -4.67450160251453
        }, 
        {
            "lat": 53.735456357204384, 
            "tiploc": "MLHL", 
            "name": "Mill Hill (Lancashire)", 
            "crs": "MLH", 
            "toc": "NT", 
            "lon": -2.501735311170755
        }, 
        {
            "lat": 52.28610160603858, 
            "tiploc": "WARWPWY", 
            "name": "Warwick Parkway", 
            "crs": "WRP", 
            "toc": "CH", 
            "lon": -1.6120578527593907
        }, 
        {
            "lat": 56.497793039126464, 
            "tiploc": "GOLFSTR", 
            "name": "Golf Street", 
            "crs": "GOF", 
            "toc": "SR", 
            "lon": -2.7195435006412327
        }, 
        {
            "lat": 51.38706705202925, 
            "tiploc": "CHTSEY", 
            "name": "Chertsey", 
            "crs": "CHY", 
            "toc": "SW", 
            "lon": -0.5093166064676423
        }, 
        {
            "lat": 51.318467546091746, 
            "tiploc": "WOKING", 
            "name": "Woking", 
            "crs": "WOK", 
            "toc": "SW", 
            "lon": -0.5569596795014521
        }, 
        {
            "lat": 51.67386476515968, 
            "tiploc": "LLNLLI", 
            "name": "Llanelli", 
            "crs": "LLE", 
            "toc": "AW", 
            "lon": -4.16130341182469
        }, 
        {
            "lat": 51.522522027884825, 
            "tiploc": "MARYLBN", 
            "name": "London Marylebone", 
            "crs": "MYB", 
            "toc": "CH", 
            "lon": -0.16291089985291704
        }, 
        {
            "lat": 52.85364317173123, 
            "tiploc": "WLNTNON", 
            "name": "Willington", 
            "crs": "WIL", 
            "toc": "EM", 
            "lon": -1.5633605394187644
        }, 
        {
            "lat": 51.5324947720042, 
            "tiploc": "WLSDJHL", 
            "name": "Willesden Junction", 
            "crs": "WIJ", 
            "toc": "LO", 
            "lon": -0.24454788456345455
        }, 
        {
            "lat": 52.4227698823911, 
            "tiploc": "BROOME", 
            "name": "Broome", 
            "crs": "BME", 
            "toc": "AW", 
            "lon": -2.8852074714326923
        }, 
        {
            "lat": 51.336325837129394, 
            "tiploc": "CMBLEY", 
            "name": "Camberley", 
            "crs": "CAM", 
            "toc": "SW", 
            "lon": -0.7442716833707637
        }, 
        {
            "lat": 51.40579885288157, 
            "tiploc": "SHRTLND", 
            "name": "Shortlands", 
            "crs": "SRT", 
            "toc": "SE", 
            "lon": 0.0017840279047206154
        }, 
        {
            "lat": 53.64651749479831, 
            "tiploc": "SOUTHPT", 
            "name": "Southport", 
            "crs": "SOP", 
            "toc": "ME", 
            "lon": -3.0024347131693565
        }, 
        {
            "lat": 52.954368960013916, 
            "tiploc": "TANY", 
            "name": "Tan-y-Bwlch  (Bus)", 
            "crs": "TYB", 
            "toc": "ZB", 
            "lon": -4.0115152823743
        }, 
        {
            "lat": 51.65325222216049, 
            "tiploc": "ENFC", 
            "name": "Enfield Chase", 
            "crs": "ENC", 
            "toc": "GN", 
            "lon": -0.09069636549785143
        }, 
        {
            "lat": 50.73918327908035, 
            "tiploc": "RYDCATS", 
            "name": "Ryde Pier Head", 
            "crs": "RYP", 
            "toc": "IL", 
            "lon": -1.1601266594011788
        }, 
        {
            "lat": 53.35765219769061, 
            "tiploc": "BEBNGTN", 
            "name": "Bebington", 
            "crs": "BEB", 
            "toc": "ME", 
            "lon": -3.0036346408225763
        }, 
        {
            "lat": 54.69435586371646, 
            "tiploc": "LWBY", 
            "name": "Langwathby", 
            "crs": "LGW", 
            "toc": "NT", 
            "lon": -2.663683672794805
        }, 
        {
            "lat": 50.933763855056114, 
            "tiploc": "WINCNEW", 
            "name": "Winchelsea", 
            "crs": "WSE", 
            "toc": "SN", 
            "lon": 0.7022616615985646
        }, 
        {
            "lat": 51.511807863865975, 
            "tiploc": "BLFR", 
            "name": "London Blackfriars", 
            "crs": "BFR", 
            "toc": "TL", 
            "lon": -0.10333206712443484
        }, 
        {
            "lat": 0.0, 
            "tiploc": "HOLINWD", 
            "name": "Hollinwood", 
            "crs": "HOD", 
            "toc": "NT", 
            "lon": 0.0
        }, 
        {
            "lat": 58.4829906214691, 
            "tiploc": "SCSCLDR", 
            "name": "Scotscalder", 
            "crs": "SCT", 
            "toc": "SR", 
            "lon": -3.552049792086418
        }, 
        {
            "lat": 52.37909277406321, 
            "tiploc": "RUGBY", 
            "name": "Rugby", 
            "crs": "RUG", 
            "toc": "VT", 
            "lon": -1.2504844056581146
        }, 
        {
            "lat": 51.39192556811119, 
            "tiploc": "SELHRST", 
            "name": "Selhurst", 
            "crs": "SRS", 
            "toc": "SN", 
            "lon": -0.0882999731671392
        }, 
        {
            "lat": 51.16331747107855, 
            "tiploc": "MLFORLP", 
            "name": "Milford (Surrey)", 
            "crs": "MLF", 
            "toc": "SW", 
            "lon": -0.6369483542335653
        }, 
        {
            "lat": 51.65891738766915, 
            "tiploc": "PNALLY", 
            "name": "Penally", 
            "crs": "PNA", 
            "toc": "AW", 
            "lon": -4.722054956437404
        }, 
        {
            "lat": 51.301066862213275, 
            "tiploc": "STURRY", 
            "name": "Sturry", 
            "crs": "STU", 
            "toc": "SE", 
            "lon": 1.1222552816532474
        }, 
        {
            "lat": 55.60574042621791, 
            "tiploc": "TWDBANK", 
            "name": "Tweedbank", 
            "crs": "TWB", 
            "toc": "SR", 
            "lon": -2.7595311314552293
        }, 
        {
            "lat": 51.6409325818712, 
            "tiploc": "YSTRADM", 
            "name": "Ystrad Mynach", 
            "crs": "YSM", 
            "toc": "AW", 
            "lon": -3.241295319664947
        }, 
        {
            "lat": 52.48943298557931, 
            "tiploc": "BHAMJEW", 
            "name": "Jewellery Quarter", 
            "crs": "JEQ", 
            "toc": "LM", 
            "lon": -1.9132127550882023
        }, 
        {
            "lat": 55.50169620707306, 
            "tiploc": "PWCK", 
            "name": "Prestwick Town", 
            "crs": "PTW", 
            "toc": "SR", 
            "lon": -4.615156230936393
        }, 
        {
            "lat": 51.43763362127064, 
            "tiploc": "EASTBRK", 
            "name": "Eastbrook", 
            "crs": "EBK", 
            "toc": "AW", 
            "lon": -3.206137387122615
        }, 
        {
            "lat": 51.66992041786625, 
            "tiploc": "PNRHCBR", 
            "name": "Penrhiwceiber", 
            "crs": "PER", 
            "toc": "AW", 
            "lon": -3.3599436449947055
        }, 
        {
            "lat": 51.65658419128251, 
            "tiploc": "CWMBRAN", 
            "name": "Cwmbran", 
            "crs": "CWM", 
            "toc": "AW", 
            "lon": -3.0162033039507308
        }, 
        {
            "lat": 56.456472528739745, 
            "tiploc": "INVGWRE", 
            "name": "Invergowrie", 
            "crs": "ING", 
            "toc": "SR", 
            "lon": -3.0573977003418316
        }, 
        {
            "lat": 54.60988796718284, 
            "tiploc": "REDCBSC", 
            "name": "British Steel Redcar", 
            "crs": "RBS", 
            "toc": "NT", 
            "lon": -1.112661204774171
        }, 
        {
            "lat": 52.4369076910224, 
            "tiploc": "HLGN", 
            "name": "Hall Green", 
            "crs": "HLG", 
            "toc": "LM", 
            "lon": -1.8456508656424881
        }, 
        {
            "lat": 55.90138256910659, 
            "tiploc": "LVNSTNN", 
            "name": "Livingston North", 
            "crs": "LSN", 
            "toc": "SR", 
            "lon": -3.544350818643811
        }, 
        {
            "lat": 53.41401013760736, 
            "tiploc": "ROMILEY", 
            "name": "Romiley", 
            "crs": "RML", 
            "toc": "NT", 
            "lon": -2.0893264853815525
        }, 
        {
            "lat": 51.633655747389525, 
            "tiploc": "BRNMONC", 
            "name": "Burnham-on-Crouch", 
            "crs": "BUU", 
            "toc": "LE", 
            "lon": 0.8140278287738434
        }, 
        {
            "lat": 51.49031, 
            "tiploc": "BRNSTLT", 
            "name": "Barons Court Underground", 
            "crs": "ZBC", 
            "toc": "LT", 
            "lon": -0.2134
        }, 
        {
            "lat": 51.016533309252374, 
            "tiploc": "CHAPLTN", 
            "name": "Chapleton", 
            "crs": "CPN", 
            "toc": "GW", 
            "lon": -4.024721812383304
        }, 
        {
            "lat": 57.988711987913064, 
            "tiploc": "ROGART", 
            "name": "Rogart", 
            "crs": "ROG", 
            "toc": "SR", 
            "lon": -4.1581849330518015
        }, 
        {
            "lat": 55.871691930359184, 
            "tiploc": "LVNSTNS", 
            "name": "Livingston South", 
            "crs": "LVG", 
            "toc": "SR", 
            "lon": -3.5015691140620104
        }, 
        {
            "lat": 53.42555829026513, 
            "tiploc": "HTCP", 
            "name": "Heaton Chapel", 
            "crs": "HTC", 
            "toc": "NT", 
            "lon": -2.1790415060301433
        }, 
        {
            "lat": 50.93607219373755, 
            "tiploc": "KNYMPTN", 
            "name": "Kings Nympton", 
            "crs": "KGN", 
            "toc": "GW", 
            "lon": -3.905410632933094
        }, 
        {
            "lat": 57.621756226518144, 
            "tiploc": "LCHLCHR", 
            "name": "Lochluichart", 
            "crs": "LCC", 
            "toc": "SR", 
            "lon": -4.809048773004652
        }, 
        {
            "lat": 57.33700072249785, 
            "tiploc": "DUNCRAG", 
            "name": "Duncraig", 
            "crs": "DCG", 
            "toc": "SR", 
            "lon": -5.637130566251576
        }, 
        {
            "lat": 53.71381610007096, 
            "tiploc": "TODMRDN", 
            "name": "Todmorden", 
            "crs": "TOD", 
            "toc": "NT", 
            "lon": -2.099659168967867
        }, 
        {
            "lat": 51.513503680344456, 
            "tiploc": "WEALING", 
            "name": "West Ealing", 
            "crs": "WEA", 
            "toc": "GW", 
            "lon": -0.32013327441965683
        }, 
        {
            "lat": 51.570212143736754, 
            "tiploc": "SKENTON", 
            "name": "South Kenton", 
            "crs": "SOK", 
            "toc": "LT", 
            "lon": -0.308462437181778
        }, 
        {
            "lat": 55.926687214026124, 
            "tiploc": "SLATEFD", 
            "name": "Slateford", 
            "crs": "SLA", 
            "toc": "SR", 
            "lon": -3.2434565047305104
        }, 
        {
            "lat": 56.00420690277842, 
            "tiploc": "HLNSBRC", 
            "name": "Helensburgh Central", 
            "crs": "HLC", 
            "toc": "SR", 
            "lon": -4.732757753398864
        }, 
        {
            "lat": 51.46629577731621, 
            "tiploc": "LBGHJN", 
            "name": "Loughborough Junction", 
            "crs": "LGJ", 
            "toc": "TL", 
            "lon": -0.10218207794252922
        }, 
        {
            "lat": 0.0, 
            "tiploc": "PWCH", 
            "name": "Prestwich Metrolink (Bus)", 
            "crs": "PWC", 
            "toc": "ZB", 
            "lon": 0.0
        }, 
        {
            "lat": 53.36447767163343, 
            "tiploc": "HALW", 
            "name": "Halewood", 
            "crs": "HED", 
            "toc": "NT", 
            "lon": -2.8301338990336697
        }, 
        {
            "lat": 52.578969537813265, 
            "tiploc": "ATHRSTN", 
            "name": "Atherstone", 
            "crs": "ATH", 
            "toc": "LM", 
            "lon": -1.5528113308937872
        }, 
        {
            "lat": 51.36271841950398, 
            "tiploc": "EYNSFD", 
            "name": "Eynsford", 
            "crs": "EYN", 
            "toc": "SE", 
            "lon": 0.20439312926986475
        }, 
        {
            "lat": 53.007978436382714, 
            "tiploc": "STOKEOT", 
            "name": "Stoke-on-Trent", 
            "crs": "SOT", 
            "toc": "VT", 
            "lon": -2.1809873296066558
        }, 
        {
            "lat": 55.8879418580705, 
            "tiploc": "CLDRCRX", 
            "name": "Caldercruix", 
            "crs": "CAC", 
            "toc": "SR", 
            "lon": -3.8877110444554175
        }, 
        {
            "lat": 51.418728017544645, 
            "tiploc": "STRHCOM", 
            "name": "Streatham Common", 
            "crs": "SRC", 
            "toc": "SN", 
            "lon": -0.13600984942674885
        }, 
        {
            "lat": 0.0, 
            "tiploc": "WISBBUS", 
            "name": "Wisbech Horsefair (Bus)", 
            "crs": "WIS", 
            "toc": "ZB", 
            "lon": 0.0
        }, 
        {
            "lat": 53.52341838704696, 
            "tiploc": "MSTN", 
            "name": "Moston", 
            "crs": "MSO", 
            "toc": "NT", 
            "lon": -2.1710228330004577
        }, 
        {
            "lat": 50.8550468574776, 
            "tiploc": "BLIEURD", 
            "name": "Beaulieu Road", 
            "crs": "BEU", 
            "toc": "SW", 
            "lon": -1.5047494907054941
        }, 
        {
            "lat": 0.0, 
            "tiploc": "SOTDWD", 
            "name": "Southampton Western Docks", 
            "crs": "XSK", 
            "toc": "PC", 
            "lon": 0.0
        }, 
        {
            "lat": 51.5393, 
            "tiploc": "BARKGLT", 
            "name": "Barking Underground", 
            "crs": "ZBK", 
            "toc": "LT", 
            "lon": 0.0817
        }, 
        {
            "lat": 54.95954259529612, 
            "tiploc": "BRWHINS", 
            "name": "Brockley Whins (T & W Metro)", 
            "crs": "BNR", 
            "toc": "TW", 
            "lon": -1.461353275208675
        }, 
        {
            "lat": 0.0, 
            "tiploc": "FALSWTH", 
            "name": "Failsworth", 
            "crs": "FLS", 
            "toc": "NT", 
            "lon": 0.0
        }, 
        {
            "lat": 53.724242814434305, 
            "tiploc": "LSTH", 
            "name": "Lostock Hall", 
            "crs": "LOH", 
            "toc": "NT", 
            "lon": -2.68748331991519
        }, 
        {
            "lat": 51.6130909542498, 
            "tiploc": "MLHB", 
            "name": "Mill Hill Broadway", 
            "crs": "MIL", 
            "toc": "TL", 
            "lon": -0.24923971283812835
        }, 
        {
            "lat": 52.47093183717112, 
            "tiploc": "OLHL", 
            "name": "Old Hill", 
            "crs": "OHL", 
            "toc": "LM", 
            "lon": -2.0561906629362308
        }, 
        {
            "lat": 51.379638316572034, 
            "tiploc": "BEDYN", 
            "name": "Bedwyn", 
            "crs": "BDW", 
            "toc": "GW", 
            "lon": -1.598786116903275
        }, 
        {
            "lat": 50.95700018049761, 
            "tiploc": "PRTSMTA", 
            "name": "Portsmouth Arms", 
            "crs": "PMA", 
            "toc": "GW", 
            "lon": -3.950579400452369
        }, 
        {
            "lat": 51.58291686864411, 
            "tiploc": "WLTWCEN", 
            "name": "Walthamstow Central", 
            "crs": "WHC", 
            "toc": "LO", 
            "lon": -0.019815023124161005
        }, 
        {
            "lat": 56.11205715123655, 
            "tiploc": "KCLD", 
            "name": "Kirkcaldy", 
            "crs": "KDY", 
            "toc": "SR", 
            "lon": -3.1670283174746188
        }, 
        {
            "lat": 53.469083127844634, 
            "tiploc": "FAZKRLY", 
            "name": "Fazakerley", 
            "crs": "FAZ", 
            "toc": "ME", 
            "lon": -2.936723192447611
        }, 
        {
            "lat": 55.859754790338684, 
            "tiploc": "GLGC", 
            "name": "Glasgow Central", 
            "crs": "GLC", 
            "toc": "RT", 
            "lon": -4.257643235656933
        }, 
        {
            "lat": 56.01236201340869, 
            "tiploc": "HLNSBRU", 
            "name": "Helensburgh Upper", 
            "crs": "HLU", 
            "toc": "SR", 
            "lon": -4.729803949412385
        }, 
        {
            "lat": 53.26766304277784, 
            "tiploc": "LSTG", 
            "name": "Lostock Gralam", 
            "crs": "LTG", 
            "toc": "NT", 
            "lon": -2.4652029707315037
        }, 
        {
            "lat": 51.54814632472448, 
            "tiploc": "DALSKLD", 
            "name": "Dalston Kingsland", 
            "crs": "DLK", 
            "toc": "LO", 
            "lon": -0.07570082140922381
        }, 
        {
            "lat": 50.70102899478129, 
            "tiploc": "MORETON", 
            "name": "Moreton (Dorset)", 
            "crs": "MTN", 
            "toc": "SW", 
            "lon": -2.3134496593317087
        }, 
        {
            "lat": 54.94641358659324, 
            "tiploc": "EBOLDON", 
            "name": "East Boldon (T & W Metro)", 
            "crs": "EBL", 
            "toc": "TW", 
            "lon": -1.4203139194037617
        }, 
        {
            "lat": 52.051496006399745, 
            "tiploc": "CYNGHRD", 
            "name": "Cynghordy", 
            "crs": "CYN", 
            "toc": "AW", 
            "lon": -3.7482105026070274
        }, 
        {
            "lat": 55.536731685417955, 
            "tiploc": "CHHL", 
            "name": "Chathill", 
            "crs": "CHT", 
            "toc": "NT", 
            "lon": -1.7063751469664243
        }, 
        {
            "lat": 52.3914141501688, 
            "tiploc": "HOPTONH", 
            "name": "Hopton Heath", 
            "crs": "HPT", 
            "toc": "AW", 
            "lon": -2.9120595833540146
        }, 
        {
            "lat": 56.11778819219982, 
            "tiploc": "ALLOA", 
            "name": "Alloa", 
            "crs": "ALO", 
            "toc": "SR", 
            "lon": -3.790055586305255
        }, 
        {
            "lat": 50.79849359441136, 
            "tiploc": "PSEA", 
            "name": "Portsmouth & Southsea", 
            "crs": "PMS", 
            "toc": "SW", 
            "lon": -1.0909110478613053
        }, 
        {
            "lat": 56.45235146275262, 
            "tiploc": "CONNELF", 
            "name": "Connel Ferry", 
            "crs": "CON", 
            "toc": "SR", 
            "lon": -5.3854408423729705
        }, 
        {
            "lat": 51.48326612701557, 
            "tiploc": "WINDSEC", 
            "name": "Windsor & Eton Central", 
            "crs": "WNC", 
            "toc": "GW", 
            "lon": -0.6103799247307021
        }, 
        {
            "lat": 51.523915395974285, 
            "tiploc": "BTHNLGR", 
            "name": "Bethnal Green", 
            "crs": "BET", 
            "toc": "LO", 
            "lon": -0.05956804087052071
        }, 
        {
            "lat": 51.901436440474555, 
            "tiploc": "STANMFC", 
            "name": "Stansted Mountfitchet", 
            "crs": "SST", 
            "toc": "LE", 
            "lon": 0.19978087452933835
        }, 
        {
            "lat": 51.37988927380555, 
            "tiploc": "ESHER", 
            "name": "Esher", 
            "crs": "ESH", 
            "toc": "SW", 
            "lon": -0.3533378261942159
        }, 
        {
            "lat": 50.933763855056114, 
            "tiploc": "WINCSEA", 
            "name": "Winchelsea", 
            "crs": "WSE", 
            "toc": "SN", 
            "lon": 0.7022616615985646
        }, 
        {
            "lat": 0.0, 
            "tiploc": "LYNECMP", 
            "name": "Lyneham Camp (Bus)", 
            "crs": "XBD", 
            "toc": "ZB", 
            "lon": 0.0
        }, 
        {
            "lat": 51.356548476594966, 
            "tiploc": "CHSSS", 
            "name": "Chessington South", 
            "crs": "CSS", 
            "toc": "SW", 
            "lon": -0.3081575636500277
        }, 
        {
            "lat": 52.62728638947704, 
            "tiploc": "CODSALL", 
            "name": "Codsall", 
            "crs": "CSL", 
            "toc": "LM", 
            "lon": -2.2017628137333145
        }, 
        {
            "lat": 56.84282591316124, 
            "tiploc": "CORPACH", 
            "name": "Corpach", 
            "crs": "CPA", 
            "toc": "SR", 
            "lon": -5.1219564407639675
        }, 
        {
            "lat": 53.53385055940274, 
            "tiploc": "HAGFOLD", 
            "name": "Hag Fold", 
            "crs": "HGF", 
            "toc": "NT", 
            "lon": -2.4948215406378895
        }, 
        {
            "lat": 51.46750506952694, 
            "tiploc": "STPLTNR", 
            "name": "Stapleton Road", 
            "crs": "SRD", 
            "toc": "GW", 
            "lon": -2.5662168284696207
        }, 
        {
            "lat": 51.559106197898565, 
            "tiploc": "UPMNSTR", 
            "name": "Upminster", 
            "crs": "UPM", 
            "toc": "CC", 
            "lon": 0.25088392480396865
        }, 
        {
            "lat": 52.129476371735144, 
            "tiploc": "BESJOHN", 
            "name": "Bedford St Johns", 
            "crs": "BSJ", 
            "toc": "LM", 
            "lon": -0.4675010105918842
        }, 
        {
            "lat": 56.888363179145095, 
            "tiploc": "ROYBDGE", 
            "name": "Roy Bridge", 
            "crs": "RYB", 
            "toc": "SR", 
            "lon": -4.8372420520421215
        }, 
        {
            "lat": 51.345697372422094, 
            "tiploc": "DUMPTNP", 
            "name": "Dumpton Park", 
            "crs": "DMP", 
            "toc": "SE", 
            "lon": 1.4258186362823204
        }, 
        {
            "lat": 50.76091046687727, 
            "tiploc": "LMTNTWN", 
            "name": "Lymington Town", 
            "crs": "LYT", 
            "toc": "SW", 
            "lon": -1.537161991001282
        }, 
        {
            "lat": 53.824015495373914, 
            "tiploc": "WHALLEY", 
            "name": "Whalley", 
            "crs": "WHE", 
            "toc": "NT", 
            "lon": -2.4122529909136268
        }, 
        {
            "lat": 51.54710307555882, 
            "tiploc": "HACKNYC", 
            "name": "Hackney Central", 
            "crs": "HKC", 
            "toc": "LO", 
            "lon": -0.056057609636737116
        }, 
        {
            "lat": 53.451881717823916, 
            "tiploc": "HYDEC", 
            "name": "Hyde Central", 
            "crs": "HYC", 
            "toc": "NT", 
            "lon": -2.085250132298221
        }, 
        {
            "lat": 51.342191393392405, 
            "tiploc": "PEWSEY", 
            "name": "Pewsey", 
            "crs": "PEW", 
            "toc": "GW", 
            "lon": -1.7706752147335356
        }, 
        {
            "lat": 53.4912712733896, 
            "tiploc": "ASHONUL", 
            "name": "Ashton-under-Lyne", 
            "crs": "AHN", 
            "toc": "NT", 
            "lon": -2.094312273592711
        }, 
        {
            "lat": 50.21657711219791, 
            "tiploc": "PERANWL", 
            "name": "Perranwell", 
            "crs": "PRW", 
            "toc": "GW", 
            "lon": -5.11206911064482
        }, 
        {
            "lat": 54.54167767053412, 
            "tiploc": "CRCK", 
            "name": "Corkickle", 
            "crs": "CKL", 
            "toc": "NT", 
            "lon": -3.5821639937524865
        }, 
        {
            "lat": 53.54432310790814, 
            "tiploc": "DODWRTH", 
            "name": "Dodworth", 
            "crs": "DOD", 
            "toc": "NT", 
            "lon": -1.531690739537414
        }, 
        {
            "lat": 55.9143167563865, 
            "tiploc": "WHAILES", 
            "name": "Wester Hailes", 
            "crs": "WTA", 
            "toc": "SR", 
            "lon": -3.2843391469486276
        }, 
        {
            "lat": 54.9527, 
            "tiploc": "PELAWTW", 
            "name": "Pelaw (T & W Metro)", 
            "crs": "PAW", 
            "toc": "TW", 
            "lon":  -1.5414
        }, 
        {
            "lat": 0.0, 
            "tiploc": "WDBDGBS", 
            "name": "Wadebridge Bus Station", 
            "crs": "WBE", 
            "toc": "ZB", 
            "lon": 0.0
        }, 
        {
            "lat": 51.43545074209875, 
            "tiploc": "ALBNYPK", 
            "name": "Albany Park", 
            "crs": "AYP", 
            "toc": "SE", 
            "lon": 0.12573707258458985
        }, 
        {
            "lat": 55.93312038970162, 
            "tiploc": "NCRAGHA", 
            "name": "Newcraighall", 
            "crs": "NEW", 
            "toc": "SR", 
            "lon": -3.090843369712456
        }, 
        {
            "lat": 50.86694650567125, 
            "tiploc": "OREE", 
            "name": "Ore", 
            "crs": "ORE", 
            "toc": "SN", 
            "lon": 0.5915678864183034
        }, 
        {
            "lat": 0.0, 
            "tiploc": "CSBY", 
            "name": "Castlebay, Barra (Bus)", 
            "crs": "CTB", 
            "toc": "ZB", 
            "lon": 0.0
        }, 
        {
            "lat": 52.34681424161992, 
            "tiploc": "HALSWTH", 
            "name": "Halesworth", 
            "crs": "HAS", 
            "toc": "LE", 
            "lon": 1.5056673864896757
        }, 
        {
            "lat": 51.477071505387414, 
            "tiploc": "KEWGRDN", 
            "name": "Kew Gardens", 
            "crs": "KWG", 
            "toc": "LT", 
            "lon": -0.2850535827780554
        }, 
        {
            "lat": 0.0, 
            "tiploc": "SINFINN", 
            "name": "Private Charter", 
            "crs": "SIR", 
            "toc": "PC", 
            "lon": 0.0
        },